[
  {
    "location_id": "1",
    "post_code": "1",
    "name": "Adrar",
    "wilaya_name": "Adrar",
    "longitude": 27.9766155,
    "latitude": -0.20396
  },
  {
    "location_id": "2",
    "post_code": "2",
    "name": "Chlef",
    "wilaya_name": "Chlef",
    "longitude": 36.1691245,
    "latitude": 1.3539002
  },
  {
    "location_id": "3",
    "post_code": "3",
    "name": "Laghouat",
    "wilaya_name": "Laghouat",
    "longitude": 33.7873735,
    "latitude": 2.8829115
  },
  {
    "location_id": "4",
    "post_code": "4",
    "name": "Oum El Bouaghi",
    "wilaya_name": "Oum El Bouaghi",
    "longitude": 35.8726014,
    "latitude": 7.1180248
  },
  {
    "location_id": "5",
    "post_code": "5",
    "name": "Batna",
    "wilaya_name": "Batna",
    "longitude": 35.32147,
    "latitude": 3.1066502
  },
  {
    "location_id": "6",
    "post_code": "6",
    "name": "Béjaïa",
    "wilaya_name": "Béjaïa",
    "longitude": 36.7695969,
    "latitude": 5.0085855
  },
  {
    "location_id": "7",
    "post_code": "7",
    "name": "Biskra",
    "wilaya_name": "Biskra",
    "longitude": 34.8515041,
    "latitude": 5.7246709
  },
  {
    "location_id": "8",
    "post_code": "8",
    "name": "Bechar",
    "wilaya_name": "Bechar",
    "longitude": 31.5977602,
    "latitude": -1.8540446
  },
  {
    "location_id": "9",
    "post_code": "9",
    "name": "Blida",
    "wilaya_name": "Blida",
    "longitude": 36.4803023,
    "latitude": 2.8009379
  },
  {
    "location_id": "10",
    "post_code": "10",
    "name": "Bouira",
    "wilaya_name": "Bouira",
    "longitude": 36.2084234,
    "latitude": 3.925049
  },
  {
    "location_id": "11",
    "post_code": "11",
    "name": "Tamanrasset",
    "wilaya_name": "Tamanrasset",
    "longitude": 22.2746227,
    "latitude": 5.6754684
  },
  {
    "location_id": "12",
    "post_code": "12",
    "name": "Tbessa",
    "wilaya_name": "Tbessa",
    "longitude": 35.4117259,
    "latitude": 8.110545
  },
  {
    "location_id": "13",
    "post_code": "13",
    "name": "Tlemcen",
    "wilaya_name": "Tlemcen",
    "longitude": 34.8959541,
    "latitude": -1.3150979
  },
  {
    "location_id": "14",
    "post_code": "14",
    "name": "Tiaret",
    "wilaya_name": "Tiaret",
    "longitude": 35.3599899,
    "latitude": 1.3916159
  },
  {
    "location_id": "15",
    "post_code": "15",
    "name": "Tizi Ouzou",
    "wilaya_name": "Tizi Ouzou",
    "longitude": 36.7002068,
    "latitude": 4.075957
  },
  {
    "location_id": "16",
    "post_code": "16",
    "name": "Alger",
    "wilaya_name": "Alger",
    "longitude": 36.7538259,
    "latitude": 3.057841
  },
  {
    "location_id": "17",
    "post_code": "17",
    "name": "Djelfa",
    "wilaya_name": "Djelfa",
    "longitude": 34.6672467,
    "latitude": 3.2993118
  },
  {
    "location_id": "18",
    "post_code": "18",
    "name": "Jijel",
    "wilaya_name": "Jijel",
    "longitude": 36.7962714,
    "latitude": 5.7504845
  },
  {
    "location_id": "19",
    "post_code": "19",
    "name": "Se9tif",
    "wilaya_name": "Se9tif",
    "longitude": 36.1905173,
    "latitude": 5.4202134
  },
  {
    "location_id": "20",
    "post_code": "20",
    "name": "Saefda",
    "wilaya_name": "Saefda",
    "longitude": 34.841945,
    "latitude": 0.1483583
  },
  {
    "location_id": "21",
    "post_code": "21",
    "name": "Skikda",
    "wilaya_name": "Skikda",
    "longitude": 36.8777912,
    "latitude": 6.9357204
  },
  {
    "location_id": "22",
    "post_code": "22",
    "name": "Sidi Bel Abbes",
    "wilaya_name": "Sidi Bel Abbes",
    "longitude": 35.206334,
    "latitude": -0.6301368
  },
  {
    "location_id": "23",
    "post_code": "23",
    "name": "Annaba",
    "wilaya_name": "Annaba",
    "longitude": 36.9184345,
    "latitude": 7.7452755
  },
  {
    "location_id": "24",
    "post_code": "24",
    "name": "Guelma",
    "wilaya_name": "Guelma",
    "longitude": 36.4569088,
    "latitude": 7.4334312
  },
  {
    "location_id": "25",
    "post_code": "25",
    "name": "Constantine",
    "wilaya_name": "Constantine",
    "longitude": 36.319475,
    "latitude": 6.7370571
  },
  {
    "location_id": "26",
    "post_code": "26",
    "name": "Medea",
    "wilaya_name": "Medea",
    "longitude": 36.2838408,
    "latitude": 2.7728462
  },
  {
    "location_id": "27",
    "post_code": "27",
    "name": "Mostaganem",
    "wilaya_name": "Mostaganem",
    "longitude": 35.9751841,
    "latitude": 0.1149273
  },
  {
    "location_id": "28",
    "post_code": "28",
    "name": "M'Sila",
    "wilaya_name": "M'Sila",
    "longitude": 35.7211476,
    "latitude": 4.5187283
  },
  {
    "location_id": "29",
    "post_code": "29",
    "name": "Mascara",
    "wilaya_name": "Mascara",
    "longitude": 35.382998,
    "latitude": 0.1542592
  },
  {
    "location_id": "30",
    "post_code": "30",
    "name": "Ouargla",
    "wilaya_name": "Ouargla",
    "longitude": 32.1961967,
    "latitude": 4.9634113
  },
  {
    "location_id": "31",
    "post_code": "31",
    "name": "Oran",
    "wilaya_name": "Oran",
    "longitude": 35.7066928,
    "latitude": -0.6405861
  },
  {
    "location_id": "32",
    "post_code": "32",
    "name": "El Bayadh",
    "wilaya_name": "El Bayadh",
    "longitude": 32.5722756,
    "latitude": 0.950011
  },
  {
    "location_id": "33",
    "post_code": "33",
    "name": "Illizi",
    "wilaya_name": "Illizi",
    "longitude": 26.5065999,
    "latitude": 8.480587
  },
  {
    "location_id": "34",
    "post_code": "34",
    "name": "Bordj Bou Arreridj",
    "wilaya_name": "Bordj Bou Arreridj",
    "longitude": 36.0686488,
    "latitude": 4.7691823
  },
  {
    "location_id": "35",
    "post_code": "35",
    "name": "Boumerdes",
    "wilaya_name": "Boumerdes",
    "longitude": 36.7564181,
    "latitude": 3.4917212
  },
  {
    "location_id": "36",
    "post_code": "36",
    "name": "El Tarf",
    "wilaya_name": "El Tarf",
    "longitude": 36.7534258,
    "latitude": 8.2984543
  },
  {
    "location_id": "37",
    "post_code": "37",
    "name": "Tindouf",
    "wilaya_name": "Tindouf",
    "longitude": 27.2460501,
    "latitude": -6.3252899
  },
  {
    "location_id": "38",
    "post_code": "38",
    "name": "Tissemsilt",
    "wilaya_name": "Tissemsilt",
    "longitude": 35.6021906,
    "latitude": 1.802187
  },
  {
    "location_id": "39",
    "post_code": "39",
    "name": "El Oued",
    "wilaya_name": "El Oued",
    "longitude": 33.3714492,
    "latitude": 6.8573436
  },
  {
    "location_id": "40",
    "post_code": "40",
    "name": "Khenchela",
    "wilaya_name": "Khenchela",
    "longitude": 35.4263293,
    "latitude": 7.1414137
  },
  {
    "location_id": "41",
    "post_code": "41",
    "name": "Souk Ahras",
    "wilaya_name": "Souk Ahras",
    "longitude": 36.277849,
    "latitude": 7.9592299
  },
  {
    "location_id": "42",
    "post_code": "42",
    "name": "Tipaza",
    "wilaya_name": "Tipaza",
    "longitude": 36.5980966,
    "latitude": 2.4085379
  },
  {
    "location_id": "43",
    "post_code": "43",
    "name": "Mila",
    "wilaya_name": "Mila",
    "longitude": 36.4514882,
    "latitude": 6.2487316
  },
  {
    "location_id": "44",
    "post_code": "44",
    "name": "Ain Defla",
    "wilaya_name": "Ain Defla",
    "longitude": 36.1283915,
    "latitude": 2.1772514
  },
  {
    "location_id": "45",
    "post_code": "45",
    "name": "Naama",
    "wilaya_name": "Naama",
    "longitude": 33.1995605,
    "latitude": -0.8021968
  },
  {
    "location_id": "46",
    "post_code": "46",
    "name": "Ain Temouchent",
    "wilaya_name": "Ain Temouchent",
    "longitude": 35.404044,
    "latitude": -1.0580975
  },
  {
    "location_id": "47",
    "post_code": "47",
    "name": "Ghardaefa",
    "wilaya_name": "Ghardaefa",
    "longitude": 32.5891743,
    "latitude": 3.7455655
  },
  {
    "location_id": "48",
    "post_code": "48",
    "name": "Relizane",
    "wilaya_name": "Relizane",
    "longitude": 35.8050195,
    "latitude": 0.867381
  },
  {
    "location_id": "49",
    "post_code": "49",
    "name": "El M'ghair",
    "wilaya_name": "El M'ghair",
    "longitude": 33.947222,
    "latitude": 5.922222
  },
  {
    "location_id": "50",
    "post_code": "50",
    "name": "El Menia",
    "wilaya_name": "El Menia",
    "longitude": 30.579167,
    "latitude": 2.879167
  },
  {
    "location_id": "51",
    "post_code": "51",
    "name": "Ouled Djellal",
    "wilaya_name": "Ouled Djellal",
    "longitude": 34.433333,
    "latitude": 5.066667
  },
  {
    "location_id": "52",
    "post_code": "52",
    "name": "Bordj Baji Mokhtar",
    "wilaya_name": "Bordj Baji Mokhtar",
    "longitude": 21.327778,
    "latitude": 0.955556
  },
  {
    "location_id": "53",
    "post_code": "53",
    "name": "Béni Abbès",
    "wilaya_name": "Béni Abbès",
    "longitude": 30.133333,
    "latitude": -2.166667
  },
  {
    "location_id": "54",
    "post_code": "54",
    "name": "Timimoun",
    "wilaya_name": "Timimoun",
    "longitude": 29.258333,
    "latitude": 0.230556
  },
  {
    "location_id": "55",
    "post_code": "55",
    "name": "Touggourt",
    "wilaya_name": "Touggourt",
    "longitude": 33.108333,
    "latitude": 6.063889
  },
  {
    "location_id": "56",
    "post_code": "56",
    "name": "Djanet",
    "wilaya_name": "Djanet",
    "longitude": 24.554167,
    "latitude": 9.484722
  },
  {
    "location_id": "57",
    "post_code": "57",
    "name": "In Salah",
    "wilaya_name": "In Salah",
    "longitude": 27.197222,
    "latitude": 2.483333
  },
  {
    "location_id": "58",
    "post_code": "58",
    "name": "In Guezzam",
    "wilaya_name": "In Guezzam",
    "longitude": 19.572222,
    "latitude": 5.769444
  }
]